City,Lat,Lng,Max Temp,Humidity,Cloudiness,Wind Speed,Country,Date
do gonbadan,30.3586,50.7981,41.09,93,0,0.0,IR,1640474632
shafranovo,53.9667,54.7667,13.08,86,100,26.84,RU,1640474633
pevek,69.7008,170.3133,-17.19,93,100,5.95,RU,1640474634
husavik,66.0449,-17.3389,26.51,86,100,10.69,IS,1640474635
new norfolk,-42.7826,147.0587,61.92,46,62,3.0,AU,1640474635
georgetown,5.4112,100.3354,78.89,91,20,2.3,MY,1640474636
tuatapere,-46.1333,167.6833,74.82,47,13,9.69,NZ,1640474637
eregli,37.5133,34.0467,30.7,62,4,2.24,TR,1640474638
hun,29.1268,15.9477,55.09,36,26,6.24,LY,1640474638
richards bay,-28.783,32.0377,70.59,83,66,9.78,ZA,1640474639
broken hill,-31.95,141.4333,70.45,34,32,24.58,AU,1640474640
savalou,7.9281,1.9756,83.23,57,28,8.21,BJ,1640474641
new glasgow,45.5834,-62.6486,26.38,77,86,9.55,CA,1640474356
seleron,41.1333,25.0,48.33,76,97,2.98,GR,1640474642
saskylakh,71.9167,114.0833,-29.78,100,51,2.64,RU,1640474643
west richland,46.3043,-119.3614,44.33,61,1,3.44,US,1640474644
atuona,-9.8,-139.0333,78.62,69,9,14.41,PF,1640474541
kapaa,22.0752,-159.319,80.58,68,40,4.0,US,1640474645
mataura,-46.1927,168.8643,74.48,30,6,7.61,NZ,1640474646
airai,-8.9266,125.4092,60.12,96,100,4.97,TL,1640474646
mahebourg,-20.4081,57.7,77.29,83,40,5.75,MU,1640474647
kokoda,-8.8785,147.7407,83.91,72,99,1.36,PG,1640474591
nantucket,41.2835,-70.0995,47.14,94,100,15.68,US,1640474392
ostrovnoy,68.0531,39.5131,17.44,90,100,17.25,RU,1640474649
port alfred,-33.5906,26.891,70.21,88,100,18.84,ZA,1640474649
pouembout,-21.1333,164.9,85.24,64,82,1.77,NC,1640474650
olafsvik,64.8945,-23.7142,31.44,76,98,25.77,IS,1640474651
rikitea,-23.1203,-134.9692,77.23,78,100,21.94,PF,1640474360
hermanus,-34.4187,19.2345,70.9,85,87,14.12,ZA,1640474653
bredasdorp,-34.5322,20.0403,67.28,88,91,10.36,ZA,1640474654
qasigiannguit,68.8193,-51.1922,30.45,68,2,6.33,GL,1640474655
fort nelson,58.8053,-122.7002,-20.61,76,1,2.3,CA,1640474655
port elizabeth,-33.918,25.5701,66.09,94,40,0.0,ZA,1640474656
broome,42.2506,-75.833,47.53,87,90,1.99,US,1640474657
verkhnevilyuysk,63.4453,120.3167,-41.35,100,95,3.0,RU,1640474658
albany,42.6001,-73.9662,39.72,94,100,1.41,US,1640474658
chicama,-7.8447,-79.1469,66.74,71,13,8.01,PE,1640474659
palmer,42.1584,-72.3287,36.46,87,90,0.0,US,1640474660
bluff,-46.6,168.3333,74.8,55,18,9.37,NZ,1640474660
punta arenas,-53.15,-70.9167,62.71,34,0,28.77,CL,1640474661
york,40.1254,-77.0,61.77,92,90,4.61,US,1640474662
gawler,-34.6,138.7333,68.25,53,78,10.76,AU,1640474515
yellowknife,62.456,-114.3525,-4.72,87,90,16.11,CA,1640474460
glenwood springs,39.5505,-107.3248,41.81,73,75,4.14,US,1640474664
hilo,19.7297,-155.09,79.29,46,20,10.36,US,1640474417
abu zabad,12.35,29.25,65.84,21,5,13.89,SD,1640474665
souillac,-20.5167,57.5167,77.38,83,40,5.75,MU,1640474665
namibe,-15.1961,12.1522,68.79,69,32,9.4,AO,1640474726
cape town,-33.9258,18.4232,71.11,75,0,5.01,ZA,1640474500
busselton,-33.65,115.3333,70.09,55,8,14.14,AU,1640474727
hithadhoo,-0.6,73.0833,82.38,71,68,13.87,MV,1640474728
nha trang,12.25,109.1833,75.2,86,66,5.61,VN,1640474694
rossland,49.0831,-117.8022,27.63,89,100,1.99,CA,1640474729
saint-philippe,-21.3585,55.7679,78.39,89,100,0.49,RE,1640474730
tiksi,71.6872,128.8694,-9.44,98,100,6.8,RU,1640474731
lebu,-37.6167,-73.65,59.83,81,0,21.32,CL,1640474732
fairbanks,64.8378,-147.7164,14.22,86,90,0.0,US,1640474732
ushuaia,-54.8,-68.3,56.86,44,40,4.61,AR,1640474733
sao filipe,14.8961,-24.4956,76.6,66,54,6.4,CV,1640474734
deer lake,49.1667,-57.4316,13.86,92,40,0.0,CA,1640474734
constitucion,-35.3333,-72.4167,65.75,67,19,11.56,CL,1640474735
avarua,-21.2078,-159.775,82.45,74,40,14.97,CK,1640474736
ribeira grande,38.5167,-28.7,64.98,88,100,35.23,PT,1640474737
san pedro,14.35,121.0167,78.35,76,75,3.44,PH,1640474737
roma,43.2128,-75.4557,41.67,96,90,0.0,US,1640474662
castanos,26.7833,-101.4167,89.19,18,75,5.75,MX,1640474739
rio gallegos,-51.6226,-69.2181,71.65,21,0,25.32,AR,1640474539
matara,5.9485,80.5353,70.39,86,74,6.6,LK,1640474740
lompoc,34.6391,-120.4579,57.56,65,90,11.5,US,1640474542
willowmore,-33.2926,23.4895,63.46,78,95,8.86,ZA,1640474742
ancud,-41.8697,-73.8203,65.73,74,20,2.89,CL,1640474743
calahorra,42.3051,-1.9652,47.23,86,100,3.78,ES,1640474745
chuy,-33.6971,-53.4616,71.94,77,81,7.25,UY,1640474745
seoul,37.5683,126.9778,8.04,61,0,6.91,KR,1640474578
amarante do maranhao,-5.5667,-46.7422,71.11,87,100,2.13,BR,1640474746
corozal,9.3151,-75.2928,77.67,87,73,7.7,CO,1640474465
barmer,25.75,71.3833,62.53,29,96,2.46,IN,1640474748
ilulissat,69.2167,-51.1,30.22,31,3,23.02,GL,1640474748
college,64.8569,-147.8028,14.2,85,90,0.0,US,1640474583
elk point,42.6833,-96.6836,41.63,58,92,4.47,US,1640474750
narsaq,60.9167,-46.05,44.82,50,100,20.29,GL,1640474751
batsfjord,70.6345,29.7185,26.55,83,100,24.99,NO,1640474752
cayenne,4.9333,-52.3333,81.09,86,75,1.99,GF,1640474752
bay village,41.4848,-81.9221,46.29,92,90,4.0,US,1640474753
surin,14.8818,103.4936,68.38,91,51,8.41,TH,1640474756
kruisfontein,-34.0033,24.7314,63.88,92,83,3.89,ZA,1640474757
bambous virieux,-20.3428,57.7575,77.25,83,40,5.75,MU,1640474757
khatanga,71.9667,102.5,-23.01,96,67,4.14,RU,1640474758
ponta do sol,32.6667,-17.1,68.72,87,100,6.4,PT,1640474759
winslow,35.0242,-110.6974,51.98,54,1,3.0,US,1640474760
lobva,59.1854,60.5185,6.01,83,34,9.33,RU,1640474760
ketchikan,55.3422,-131.6461,17.58,38,1,10.36,US,1640474821
sinnamary,5.3833,-52.95,77.0,89,95,6.91,GF,1640474822
dir,35.2058,71.8756,41.88,54,100,3.44,PK,1640474823
san javier,37.8063,-0.8374,61.23,81,0,1.99,ES,1640474823
walvis bay,-22.9575,14.5053,63.09,82,0,4.61,NA,1640474824
carauari,-4.8828,-66.8958,78.33,89,100,1.92,BR,1640474825
longyearbyen,78.2186,15.6401,21.04,68,20,19.57,SJ,1640474826
cidreira,-30.1811,-50.2056,72.3,80,21,16.91,BR,1640474827
arraial do cabo,-22.9661,-42.0278,72.97,71,1,8.19,BR,1640474828
torbay,47.6666,-52.7314,27.27,82,75,18.41,CA,1640474829
dingle,10.9995,122.6711,75.31,92,98,8.43,PH,1640474829
ngunguru,-35.6167,174.5,76.15,80,100,8.77,NZ,1640474830
saint anthony,45.0205,-93.218,23.14,62,90,1.01,US,1640474232
kaitangata,-46.2817,169.8464,64.92,67,14,4.09,NZ,1640474833
barrow,71.2906,-156.7887,-18.38,69,40,6.91,US,1640474834
waipawa,-41.4122,175.5153,66.83,50,1,4.68,NZ,1640474834
omboue,-1.5746,9.2618,77.85,89,98,7.16,GA,1640474835
saldanha,-33.0117,17.9442,64.45,88,40,8.37,ZA,1640474836
khuzdar,27.7384,66.6434,53.44,80,95,2.08,PK,1640474837
vanimo,-2.6741,141.3028,78.13,92,100,4.47,PG,1640474838
casay,9.8204,123.5496,77.9,88,95,9.95,PH,1640474839
along,28.1667,94.7667,44.89,74,31,1.52,IN,1640474839
victoria,22.2855,114.1577,61.32,78,92,4.0,HK,1640474839
tasiilaq,65.6145,-37.6368,26.76,59,97,4.14,GL,1640474841
dzialdowo,53.2396,20.17,15.57,92,7,10.85,PL,1640474842
cherskiy,68.75,161.3,-25.69,99,100,3.76,RU,1640474843
tuktoyaktuk,69.4541,-133.0374,-22.0,76,1,8.05,CA,1640474843
provideniya,64.3833,-173.3,14.77,91,100,4.63,RU,1640474844
bozova,37.3625,38.5267,34.72,40,0,3.31,TR,1640474845
durango,24.8333,-104.8333,77.14,15,35,6.85,MX,1640474814
jamestown,42.097,-79.2353,49.32,98,90,5.99,US,1640474583
san lawrenz,36.0553,14.204,60.85,79,100,4.0,MT,1640474849
sovetskiy,61.3614,63.5842,-0.04,93,61,9.73,RU,1640474850
vaini,-21.2,-175.2,86.16,74,75,13.8,TO,1640474851
lagoa,39.05,-27.9833,64.15,86,100,35.48,PT,1640474852
grand gaube,-20.0064,57.6608,77.4,85,81,2.17,MU,1640474853
bodden town,19.2833,-81.25,80.6,72,75,1.01,KY,1640474853
santa maria,-29.6842,-53.8069,79.9,94,0,2.3,BR,1640474854
norman wells,65.282,-126.8329,-25.56,68,20,5.75,CA,1640474855
zhuhai,22.2769,113.5678,61.05,77,40,21.85,CN,1640474856
golden,39.7555,-105.2211,52.5,25,20,1.01,US,1640474858
andenes,69.3143,16.1194,21.18,79,75,9.22,NO,1640474858
pangnirtung,66.1451,-65.7125,12.92,71,12,6.85,CA,1640474919
russell,32.3502,-85.1999,69.51,77,75,0.0,US,1640474920
katsuura,35.1333,140.3,41.11,55,95,12.28,JP,1640474921
zhezkazgan,47.8043,67.7144,10.83,89,100,11.72,KZ,1640474922
maceio,-9.6658,-35.7353,83.64,78,75,12.66,BR,1640474645
gualeguaychu,-33.0094,-58.5172,84.04,24,62,9.01,AR,1640474923
esperance,-33.8667,121.9,67.84,68,67,15.9,AU,1640474924
pavlovka,52.6897,47.1405,17.35,92,94,7.2,RU,1640474665
staryy nadym,65.6118,72.6842,-13.97,96,72,11.92,RU,1640474926
severo-kurilsk,50.6789,156.125,31.41,87,100,28.72,RU,1640474926
loudi,27.7344,111.9944,26.42,90,100,9.95,CN,1640474927
horta,38.5333,-28.6333,64.09,89,100,34.29,PT,1640474928
butaritari,3.0707,172.7902,82.42,75,88,14.43,KI,1640474928
carnarvon,-24.8667,113.6333,75.27,83,90,3.44,AU,1640474929
amapa,1.0,-52.0,71.96,99,100,3.69,BR,1640474930
port augusta,-32.5,137.7667,71.71,40,1,16.28,AU,1640474931
kudahuvadhoo,2.6708,72.8944,81.77,64,65,14.45,MV,1640474931
vardo,70.3705,31.1107,27.57,78,100,26.26,NO,1640474932
saint george,37.1041,-113.5841,57.67,47,75,1.01,US,1640474697
sept-iles,50.2001,-66.3821,20.05,78,1,4.61,CA,1640474762
piacabucu,-10.4056,-36.4344,74.89,94,100,7.65,BR,1640474935
lewistown,40.5992,-77.5714,59.86,100,40,0.0,US,1640474935
kavieng,-2.5744,150.7967,83.3,78,88,7.83,PG,1640474936
samfya,-11.3649,29.5565,67.26,90,94,5.73,ZM,1640474937
bubaque,11.2833,-15.8333,79.93,75,100,11.59,GW,1640474938
kiruna,67.8557,20.2251,13.12,79,90,10.36,SE,1640474938
sainte-maxime,43.3,6.6333,53.96,95,98,3.06,FR,1640474939
dikson,73.5069,80.5464,-6.18,97,100,7.63,RU,1640474940
hobart,-42.8794,147.3294,62.26,44,40,1.01,AU,1640474830
port blair,11.6667,92.75,76.26,76,39,8.41,IN,1640474941
coron,11.9986,120.2043,78.24,78,100,5.61,PH,1640474942
shumskiy,54.8318,99.1328,-4.72,94,27,2.35,RU,1640474942
thompson,55.7435,-97.8558,-21.84,83,20,5.75,CA,1640474784
paamiut,61.994,-49.6678,29.48,70,10,9.24,GL,1640474944
tonantins,-2.8731,-67.8022,79.09,88,92,1.66,BR,1640474945
caravelas,-17.7125,-39.2481,71.58,93,100,4.94,BR,1640474946
kaeo,-35.1,173.7833,76.32,71,100,7.61,NZ,1640474946
faya,18.3851,42.4509,57.31,68,28,1.81,SA,1640474947
leh,34.1667,77.5833,5.7,80,99,2.04,IN,1640474948
sur,22.5667,59.5289,72.64,70,71,2.71,OM,1640474948
thomaston,32.8882,-84.3266,68.63,68,75,1.99,US,1640474949
oistins,13.0667,-59.5333,78.89,69,40,16.11,BB,1640474950
santa cruz,-17.8,-63.1667,82.45,69,75,3.44,BO,1640474951
astana,51.1801,71.446,4.95,78,90,17.9,KZ,1640474951
puerto ayora,-0.7393,-90.3518,80.56,91,100,7.0,EC,1640474952
petukhovo,55.0692,67.9019,-16.73,99,8,5.44,RU,1640474953
porto nacional,-10.7081,-48.4172,75.2,97,100,6.24,BR,1640474954
yulara,-25.2406,130.9889,84.04,16,13,17.27,AU,1640475015
alice springs,-23.7,133.8833,85.55,23,2,13.8,AU,1640475016
comodoro rivadavia,-45.8667,-67.5,64.26,63,0,16.11,AR,1640474778
egvekinot,66.3167,-179.1667,-10.61,92,100,9.37,RU,1640475018
lashio,22.9333,97.75,47.12,98,7,0.92,MM,1640475019
villa maria,-32.4075,-63.2402,82.11,18,8,8.1,AR,1640475020
nizwa,22.9333,57.5333,67.42,54,99,1.97,OM,1640475021
karabulak,43.3036,44.8964,18.16,76,84,3.62,RU,1640475022
sitka,57.0531,-135.33,26.49,33,40,0.0,US,1640475023
chokurdakh,70.6333,147.9167,-16.96,97,100,10.96,RU,1640475024
vanavara,60.34,102.2797,-19.53,100,82,1.36,RU,1640475025
klaksvik,62.2266,-6.589,36.52,63,96,13.04,FO,1640475025
bengkulu,-3.8004,102.2655,75.42,89,92,4.21,ID,1640475027
castro,-24.7911,-50.0119,64.18,53,7,3.56,BR,1640475027
mujiayingzi,42.1167,118.7833,-0.56,65,17,8.19,CN,1640475028
kahului,20.8947,-156.47,79.86,67,40,19.57,US,1640474889
shimoda,34.6667,138.95,43.16,52,2,25.61,JP,1640475029
fortuna,40.5982,-124.1573,46.65,91,75,3.0,US,1640475030
matamoros,25.5333,-103.25,86.11,18,40,8.05,MX,1640475016
nyurba,63.2842,118.3319,-44.05,100,61,1.66,RU,1640475032
bull savanna,17.8868,-77.5902,75.31,76,86,2.84,JM,1640475032
itarema,-2.9248,-39.9167,79.95,80,88,9.06,BR,1640475033
cap malheureux,-19.9842,57.6142,77.49,85,83,2.46,MU,1640475034
adrar,20.5022,-10.0711,65.21,24,0,9.08,MR,1640475035
mahajanga,-15.7167,46.3167,78.51,79,100,1.9,MG,1640475035
honiara,-9.4333,159.95,81.79,85,100,6.42,SB,1640475036
toora-khem,52.4675,96.11,-22.88,100,81,0.49,RU,1640475037
yankton,42.8711,-97.3973,35.85,60,1,4.61,US,1640475038
suntar,62.1444,117.6319,-32.82,99,88,3.91,RU,1640475039
panaba,21.2833,-88.2667,71.33,66,0,9.69,MX,1640475039
durazno,-33.4131,-56.5006,72.1,60,37,14.76,UY,1640475040
mezen,65.8522,44.24,7.43,95,100,6.96,RU,1640475041
terrace bay,48.7834,-87.1,17.22,78,95,9.6,CA,1640475042
fort saint james,54.4333,-124.25,-10.14,80,5,4.97,CA,1640475043
tateyama,34.9833,139.8667,43.07,54,96,7.83,JP,1640475043
kapit,2.0167,112.9333,75.04,98,99,0.45,MY,1640475044
hokitika,-42.7167,170.9667,62.49,61,77,5.44,NZ,1640475047
mehamn,71.0357,27.8492,27.79,72,100,25.17,NO,1640475047
beringovskiy,63.05,179.3167,1.27,93,100,11.63,RU,1640475048
bethel,41.3712,-73.414,45.18,90,90,1.01,US,1640475049
kavali,14.9167,79.9833,67.93,83,36,4.94,IN,1640475050
pacatuba,-3.9842,-38.6203,81.77,84,93,3.04,BR,1640475051
pisco,-13.7,-76.2167,71.65,78,75,11.5,PE,1640475111
karatau,43.1667,70.4667,36.48,85,100,4.76,KZ,1640475112
ust-nera,64.5667,143.2,-42.38,100,100,2.89,RU,1640475113
san quintin,30.4833,-115.95,60.03,72,100,9.33,MX,1640475114
talcahuano,-36.7167,-73.1167,71.28,56,0,17.27,CL,1640475003
dano,11.15,-3.0667,78.6,20,91,6.73,BF,1640475116
carmen,18.6333,-91.8333,82.44,54,1,6.91,MX,1640475117
zdunska wola,51.5992,18.9397,20.32,90,5,3.91,PL,1640475118
aquiraz,-3.9014,-38.3911,82.49,79,95,7.4,BR,1640475119
oyon,-10.6681,-76.7731,43.95,87,100,0.34,PE,1640475120
mana,5.6592,-53.7767,77.07,88,86,6.69,GF,1640475121
conceicao da barra,-18.5933,-39.7322,70.63,90,91,5.61,BR,1640475122
shelkovskaya,43.5069,46.3392,22.87,90,86,2.75,RU,1640475124
vila,42.0304,-8.1588,46.33,95,100,4.47,PT,1640475125
nouadhibou,20.931,-17.0347,67.44,63,0,13.31,MR,1640475126
port-gentil,-0.7193,8.7815,79.83,85,93,10.67,GA,1640475126
qaanaaq,77.484,-69.3632,11.16,90,100,7.14,GL,1640475127
sambava,-14.2667,50.1667,74.88,91,96,4.7,MG,1640475128
zhovtneve,50.6637,24.2492,18.61,92,18,5.97,UA,1640475129
victoria point,-27.5833,153.3,81.18,83,98,5.99,AU,1640475130
boyolangu,-8.1181,111.8935,78.71,87,99,5.06,ID,1640475131
bathsheba,13.2167,-59.5167,79.41,69,40,16.11,BB,1640475132
verkhoyansk,67.5447,133.385,-46.46,100,100,1.83,RU,1640475133
rawson,-43.3002,-65.1023,65.35,60,7,14.09,AR,1640475051
petropavlovsk-kamchatskiy,53.0452,158.6483,28.99,80,90,17.9,RU,1640475135
uyemskiy,64.4743,40.8524,3.25,85,90,6.71,RU,1640475137
vila franca do campo,37.7167,-25.4333,65.19,92,100,23.69,PT,1640475137
toyo,10.7333,125.0167,78.06,91,98,8.77,PH,1640475138
nikolskoye,59.7035,30.7861,7.81,98,100,4.07,RU,1640475139
ferkessedougou,9.6,-5.2,77.43,24,47,5.17,CI,1640475140
san julian,21.0167,-102.1667,75.2,21,1,1.66,MX,1640475141
adeje,28.1227,-16.726,66.94,81,40,2.3,ES,1640475142
touros,-5.1989,-35.4608,83.3,81,97,8.55,BR,1640475143
novikovo,51.1537,37.8879,13.15,93,100,4.43,RU,1640475144
sandakan,5.8402,118.1179,74.88,100,40,1.99,MY,1640475144
chizhou,30.6578,117.4831,26.28,39,73,9.44,CN,1640475145
ambulu,-8.345,113.6058,80.24,84,99,4.16,ID,1640475146
boa vista,2.8197,-60.6733,84.18,70,40,5.75,BR,1640475147
bud,39.447,-86.1758,55.69,92,60,6.26,US,1640475148
saint-augustin,51.226,-58.6502,28.08,97,88,5.14,CA,1640475149
eyl,7.9803,49.8164,77.34,66,94,12.53,SO,1640475149
goderich,43.7501,-81.7165,39.9,87,88,17.27,CA,1640475150
grindavik,63.8424,-22.4338,36.07,80,90,18.41,IS,1640475151
zapolyarnyy,69.4154,30.8136,24.08,92,98,15.57,RU,1640475212
giyani,-23.3025,30.7187,70.27,83,63,6.58,ZA,1640475213
salmon creek,45.7107,-122.649,39.97,90,90,1.99,US,1640475214
cabo san lucas,22.8909,-109.9124,82.51,58,1,4.0,MX,1640474637
clyde river,70.4692,-68.5914,-0.17,78,100,19.57,CA,1640475216
yeppoon,-23.1333,150.7333,76.78,75,100,4.56,AU,1640475216
kidal,18.4411,1.4078,66.45,17,100,7.14,ML,1640475217
edd,13.9297,41.6925,76.15,65,0,5.7,ER,1640475218
siguiri,11.6667,-9.5,75.22,19,98,4.07,GN,1640475219
mesimerion,40.412,23.0059,48.25,85,100,2.26,GR,1640475220
komsomolskiy,40.4272,71.7189,35.02,80,100,4.61,UZ,1640475222
puri,19.8,85.85,71.38,73,0,2.33,IN,1640475222
baykit,61.67,96.37,-1.88,97,100,0.72,RU,1640475223
havre-saint-pierre,50.2334,-63.5986,32.0,80,40,14.97,CA,1640475224
gobabis,-22.45,18.9667,73.45,36,15,7.16,NA,1640475225
itoman,26.1247,127.6694,59.02,72,75,20.71,JP,1640475226
cedar city,37.6775,-113.0619,41.97,64,1,23.02,US,1640475227
homer,59.6425,-151.5483,35.04,87,75,3.44,US,1640475043
wete,-5.0559,39.7294,77.49,87,36,5.64,TZ,1640475228
hamilton,39.1834,-84.5333,58.71,91,75,1.99,US,1640475100
djambala,-2.5447,14.7533,68.88,87,85,1.81,CG,1640475229
le port,-20.9373,55.2919,78.8,85,97,1.92,RE,1640475230
karratha,-20.7377,116.8463,87.71,41,70,16.24,AU,1640475231
coari,-4.085,-63.1414,76.01,96,98,2.57,BR,1640475232
bykivka,50.2929,27.9831,20.61,87,77,6.31,UA,1640475233
poddorye,57.4695,31.1156,22.57,87,100,14.5,RU,1640475234
lasa,46.6166,10.7002,40.46,81,100,2.3,IT,1640475235
ahipara,-35.1667,173.1667,76.03,60,80,2.44,NZ,1640475235
pocone,-16.2567,-56.6228,76.03,89,65,3.89,BR,1640475236
pokhara,28.2333,83.9833,50.22,53,70,5.23,NP,1640475237
tahe,52.3333,124.7333,-14.35,88,60,4.52,CN,1640475238
srednekolymsk,67.45,153.6833,-29.74,98,100,6.82,RU,1640475238
talnakh,69.4865,88.3972,4.21,96,100,7.72,RU,1640475239
marawi,7.9986,124.2928,66.65,88,99,1.54,PH,1640475240
denpasar,-8.65,115.2167,83.86,79,40,10.36,ID,1640475238
hualmay,-11.0964,-77.6139,68.76,84,50,7.45,PE,1640475241
port hueneme,34.1478,-119.1951,56.95,76,90,10.36,US,1640475242
mayo,38.8876,-76.5119,68.04,69,53,1.99,US,1640475244
kavaratti,10.5669,72.642,81.1,68,47,10.31,IN,1640475245
yar-sale,66.8333,70.8333,-7.56,94,93,13.53,RU,1640475245
luderitz,-26.6481,15.1594,61.05,85,0,6.08,NA,1640475246
montrose,38.4166,-108.2673,35.17,78,37,10.2,US,1640475247
ucluelet,48.9329,-125.5528,32.09,85,100,5.44,CA,1640475248
arlit,18.7369,7.3853,67.55,18,100,6.29,NE,1640475249
belmopan,17.25,-88.7667,82.78,96,48,2.77,BZ,1640475175
alofi,-19.0595,-169.9187,80.49,69,9,9.22,NU,1640475250
coquimbo,-29.9533,-71.3436,62.33,82,20,11.5,CL,1640475086
port macquarie,-31.4333,152.9167,81.9,66,4,5.39,AU,1640475252
picota,-6.9197,-76.3304,90.09,74,43,3.15,PE,1640475313
puerto escondido,15.85,-97.0667,83.23,61,1,5.75,MX,1640475314
port dickson,2.5228,101.7959,77.22,84,63,3.67,MY,1640475314
kodiak,57.79,-152.4072,38.71,81,1,3.44,US,1640475236
bom jesus da lapa,-13.255,-43.4181,69.6,97,97,3.49,BR,1640475316
vanino,49.0869,140.2543,-9.47,74,80,13.27,RU,1640475317
pacific grove,36.6177,-121.9166,50.52,88,90,4.0,US,1640475219
abnub,27.2696,31.1511,48.42,58,0,5.41,EG,1640475320
butembo,0.15,29.2833,57.85,97,100,1.61,CD,1640475320
maues,-3.3836,-57.7186,74.86,96,98,1.72,BR,1640475321
riyadh,24.6877,46.7219,53.74,59,100,8.68,SA,1640475323
ushtobe,45.2514,77.9838,32.34,75,96,6.42,KZ,1640475324
srandakan,-7.9386,110.2506,78.35,87,100,8.12,ID,1640475325
mount isa,-20.7333,139.5,87.57,25,100,8.05,AU,1640475076
labrea,-7.2586,-64.7981,79.41,86,98,3.13,BR,1640475326
kodinsk,58.6881,99.1844,-16.37,96,47,0.67,RU,1640475327
east london,-33.0153,27.9116,69.73,91,100,12.97,ZA,1640475328
inongo,-1.95,18.2667,71.35,95,23,4.38,CD,1640475329
acajutla,13.5928,-89.8275,78.87,62,8,5.66,SV,1640475330
mikhaylovka,50.06,43.2379,29.79,95,100,8.5,RU,1640475331
vao,-22.6667,167.4833,77.79,76,92,9.57,NC,1640475331
krasavino,60.9614,46.4814,14.14,94,100,7.94,RU,1640475332
topeka,39.0483,-95.678,53.58,64,1,3.44,US,1640474951
keti bandar,24.1447,67.4497,71.82,82,39,7.63,PK,1640475334
hobyo,5.3505,48.5268,77.29,74,42,11.74,SO,1640475334
kandrian,-6.2167,149.55,86.29,66,63,5.03,PG,1640475335
masyaf,35.0653,36.3406,37.45,79,1,2.57,SY,1640475336
lamar,33.6668,-95.5836,74.86,53,1,6.91,US,1640475337
santa rosa,14.3122,121.1114,79.11,74,77,14.65,PH,1640475289
lichinga,-13.3128,35.2406,71.69,49,20,5.75,MZ,1640475339
tibagi,-24.5094,-50.4136,71.6,47,29,2.93,BR,1640475339
goundam,16.4145,-3.6708,72.72,12,100,6.04,ML,1640475340
geraldton,-28.7667,114.6,97.12,54,6,8.05,AU,1640475341
oranjemund,-28.55,16.4333,64.54,73,37,3.76,NA,1640475342
dalbandin,28.8947,64.4101,57.72,33,99,7.56,PK,1640475343
margate,51.3813,1.3862,42.96,93,100,4.0,GB,1640475344
san patricio,28.017,-97.5169,84.61,77,94,11.07,US,1640475345
upernavik,72.7868,-56.1549,2.19,100,99,8.39,GL,1640475346
leningradskiy,69.3833,178.4167,-12.39,98,100,6.46,RU,1640475347
hurricane,37.1753,-113.2899,55.74,53,56,7.54,US,1640474813
araouane,18.9048,-3.5265,67.37,17,0,7.14,ML,1640475348
yumen,40.2833,97.2,4.96,56,13,19.3,CN,1640475349
port keats,-14.25,129.55,75.51,87,100,14.25,AU,1640475350
nyakahanga,-1.6033,31.1414,59.65,95,100,3.09,TZ,1640475351
northam,51.0333,-4.2167,52.3,96,100,7.43,GB,1640475352
virginia beach,36.8529,-75.978,66.25,66,1,16.11,US,1640474547
batagay-alyta,67.8006,130.4114,-34.01,96,20,5.28,RU,1640475414
mastung,29.7994,66.845,46.92,80,100,0.18,PK,1640475415
road town,18.4167,-64.6167,78.89,78,20,9.22,VG,1640475416
paita,-5.0892,-81.1144,72.16,83,67,16.06,PE,1640475417
consolacion del sur,22.5047,-83.5136,68.4,78,0,4.07,CU,1640475418
codrington,-38.2667,141.9667,59.29,64,100,15.1,AU,1640475419
baghdad,33.3406,44.4009,39.11,48,0,9.22,IQ,1640475323
shalinskoye,55.7228,93.7594,-10.52,96,98,3.56,RU,1640475420
key west,24.5557,-81.7826,78.8,77,20,8.05,US,1640475288
teya,60.3778,92.6267,7.86,92,100,2.06,RU,1640475421
zeya,53.75,127.2667,-15.52,91,87,0.87,RU,1640475422
pryozerne,45.2698,36.3303,49.08,86,100,25.5,UA,1640475423
bandarbeyla,9.4942,50.8122,78.62,60,99,10.78,SO,1640475424
penzance,50.1186,-5.5371,52.48,92,100,12.82,GB,1640475356
shebunino,46.4339,141.8603,16.3,86,100,27.72,RU,1640475426
romny,50.751,33.4747,15.98,96,89,4.81,UA,1640475427
wanning,18.8003,110.3967,70.25,87,100,17.78,CN,1640475428
chapais,49.7834,-74.8492,8.38,94,100,4.79,CA,1640475428
kant,27.8,79.8,55.33,53,80,3.71,IN,1640475429
qiongshan,20.0058,110.3542,64.38,94,75,13.42,CN,1640475430
kanker,20.2719,81.4931,58.37,74,0,0.43,IN,1640475431
sal rei,16.1833,-22.9167,72.16,77,16,16.84,CV,1640475432
amot,59.5714,7.9877,12.38,89,9,6.11,NO,1640475432
okhotsk,59.3833,143.3,-18.06,81,79,13.96,RU,1640475433
port lincoln,-34.7333,135.8667,63.14,64,37,17.43,AU,1640475434
aasiaat,68.7098,-52.8699,9.66,77,7,11.1,GL,1640475435
flagstaff,35.1981,-111.6513,40.78,82,90,3.0,US,1640475325
taoudenni,22.6783,-3.9836,68.97,24,0,7.76,ML,1640475436
lac-megantic,45.5834,-70.8823,28.22,87,100,2.24,CA,1640475438
isangel,-19.55,169.2667,86.11,74,40,2.3,VU,1640475439
acapulco,16.8634,-99.8901,84.02,74,75,8.05,MX,1640475439
iqaluit,63.7506,-68.5145,1.13,77,20,11.99,CA,1640475440
san ignacio,17.1561,-89.0714,82.54,65,20,4.61,BZ,1640475441
venado tuerto,-33.7456,-61.9688,77.77,16,66,8.66,AR,1640475442
teruel,40.6667,-0.6667,44.56,94,100,6.4,ES,1640475443
uige,-7.6087,15.0613,66.43,96,100,1.59,AO,1640475444
necochea,-38.5473,-58.7368,67.03,79,0,2.42,AR,1640475445
namatanai,-3.6667,152.4333,84.65,71,93,6.31,PG,1640475445
port hardy,50.6996,-127.4199,26.6,74,90,6.91,CA,1640475446
alzamay,55.5562,98.6644,-13.52,98,46,1.21,RU,1640475447
mitsamiouli,-11.3847,43.2844,81.32,74,4,11.27,KM,1640475448
lufilufi,-13.8745,-171.5986,89.38,74,64,11.05,WS,1640475448
jalu,29.0331,21.5482,55.17,48,0,7.85,LY,1640475449
tautira,-17.7333,-149.15,86.02,79,18,16.02,PF,1640475381
volksrust,-27.3654,29.8818,56.34,83,90,3.6,ZA,1640475450
opuwo,-18.0607,13.84,66.78,36,44,6.78,NA,1640475451
capao bonito,-24.0058,-48.3494,60.17,91,0,5.73,BR,1640475305
marystown,47.1666,-55.1483,28.85,100,48,8.01,CA,1640475513
nanortalik,60.1432,-45.2371,35.22,73,97,12.15,GL,1640475513
taltal,-25.4,-70.4833,68.85,74,61,2.95,CL,1640475514
nishihara,26.1842,127.7558,58.28,72,75,20.71,JP,1640475515
susangerd,31.5608,48.1831,48.22,52,0,11.23,IR,1640475516
naze,28.3667,129.4833,50.92,72,100,17.85,JP,1640475517
beboto,8.2668,16.939,72.52,29,56,5.21,TD,1640475518
byron bay,-28.65,153.6167,81.05,82,87,5.01,AU,1640475519
taft,31.7471,54.2088,37.35,36,0,6.91,IR,1640475520
imbituba,-28.24,-48.6703,75.09,81,16,11.92,BR,1640475521
tilichiki,60.4667,166.1,-12.8,97,22,10.09,RU,1640475522
mountain home,43.133,-115.6912,34.79,100,40,21.85,US,1640475522
blagoyevo,63.3667,47.9167,9.21,94,100,9.53,RU,1640475523
mount gambier,-37.8333,140.7667,58.91,67,90,14.97,AU,1640475252
salalah,17.0151,54.0924,69.89,68,0,4.61,OM,1640475300
phalaborwa,-23.943,31.1411,69.33,85,51,7.36,ZA,1640475525
oxford,51.7522,-1.256,45.45,97,75,1.01,GB,1640475526
wisconsin rapids,44.3836,-89.8174,33.03,58,90,0.0,US,1640475527
usinsk,65.9939,57.5281,-2.94,94,84,9.64,RU,1640475528
lubango,-14.9172,13.4925,61.18,41,89,5.3,AO,1640475528
padang,-0.9492,100.3543,73.45,85,63,4.0,ID,1640475529
peniche,39.3558,-9.3811,59.61,95,87,7.56,PT,1640475530
angoche,-16.2325,39.9086,79.63,86,99,5.3,MZ,1640475378
talaya,61.3833,152.75,-26.1,99,100,3.22,RU,1640475532
west fargo,46.875,-96.9004,8.65,82,90,5.99,US,1640475470
henties bay,-22.116,14.2845,62.85,90,0,5.7,NA,1640475533
eydhafushi,5.1033,73.0708,80.33,67,77,8.23,MV,1640475534
camacupa,-12.0167,17.4833,62.67,94,100,1.9,AO,1640475535
kilindoni,-7.9139,39.6668,82.22,78,23,10.36,TZ,1640475536
cairns,-16.9167,145.7667,89.11,67,99,2.3,AU,1640475497
hirara,24.8,125.2833,62.46,88,75,19.57,JP,1640475537
atamanovka,51.93,113.63,0.03,98,73,3.42,RU,1640475538
aswan,24.0934,32.907,51.1,43,0,16.11,EG,1640475539
liku,-0.7275,119.8922,80.37,79,89,2.3,ID,1640475540
bahia honda,22.9036,-83.1592,72.12,64,0,4.05,CU,1640475541
narsingdi,23.9208,90.7181,62.62,72,4,5.01,BD,1640475541
mar del plata,-38.0023,-57.5575,68.02,84,0,3.0,AR,1640475542
samur,41.8253,48.486,34.77,66,39,4.85,RU,1640475543
etchoropo,26.7667,-109.6667,85.41,42,56,11.3,MX,1640475544
sucre,-19.0333,-65.2627,57.09,80,98,5.75,BO,1640475545
amberley,39.2048,-84.428,57.76,90,75,3.0,US,1640475546
vieux-habitants,16.0589,-61.7659,72.97,77,39,9.84,GP,1640475547
abu samrah,35.3029,37.1841,41.72,70,1,4.34,SY,1640475532
vrangel,42.7297,133.0839,1.62,68,38,19.51,RU,1640475548
churu,28.3,74.95,62.15,56,100,5.77,IN,1640475469
saint-pierre,-21.3393,55.4781,78.48,72,93,4.61,RE,1640475550
talara,-4.5772,-81.2719,72.36,73,0,18.41,PE,1640475611
huilong,31.8111,121.655,30.04,65,48,17.9,CN,1640475612
labuan,5.2767,115.2417,79.16,94,20,1.99,MY,1640475613
malatya,38.5,38.0,12.25,86,0,4.61,TR,1640475614
hasaki,35.7333,140.8333,36.28,37,99,17.4,JP,1640475615
hami,42.8,93.45,21.81,28,1,4.36,CN,1640475616
papagaios,-19.4492,-44.7478,66.51,85,57,5.19,BR,1640475617
myskhako,44.6714,37.7433,51.58,73,100,24.54,RU,1640475618
tezu,27.9167,96.1667,53.01,79,88,3.8,IN,1640475618
ormara,25.2088,64.6357,73.65,76,83,7.43,PK,1640475620
malumfashi,11.7853,7.6218,64.17,21,97,8.32,NG,1640475621
quatre cocos,-20.2078,57.7625,77.11,79,93,4.76,MU,1640475624
botro,7.8525,-5.3106,80.08,31,47,1.23,CI,1640475624
moron,-34.6534,-58.6198,77.05,78,4,5.01,AR,1640475625
ipixuna,-1.7625,-48.8043,78.75,92,100,3.69,BR,1640475626
spirit river,55.7833,-118.8361,-20.25,96,100,5.7,CA,1640475627
morehead,37.2711,-87.1764,67.75,68,40,3.0,US,1640475628
gap,44.6667,6.0,28.06,94,92,3.58,FR,1640475629
meulaboh,4.1363,96.1285,75.25,85,20,2.8,ID,1640475629
muncar,-8.4333,114.3333,80.37,84,100,6.67,ID,1640475630
kampot,10.6167,104.1833,78.85,87,9,3.53,KH,1640475631
ajdabiya,30.7554,20.2263,54.7,56,0,8.55,LY,1640475632
korampallam,8.7667,78.1,71.62,81,15,8.86,IN,1640475633
portland,45.5234,-122.6762,41.04,92,90,3.0,US,1640474880
narasannapeta,18.4167,84.05,68.32,88,11,3.18,IN,1640475634
asau,46.4333,26.4,28.96,100,100,4.27,RO,1640475635
lata,40.1629,-8.3327,55.04,96,100,2.24,PT,1640475635
bilibino,68.0546,166.4372,-15.72,99,100,3.18,RU,1640475636
kluang,2.0251,103.3328,74.93,95,75,3.02,MY,1640475637
surt,31.2089,16.5887,58.77,46,99,13.35,LY,1640475639
shihezi,44.3,86.0333,15.21,92,79,4.52,CN,1640475640
palang,23.2167,90.35,62.64,65,0,3.0,BD,1640475640
mabaruma,8.2,-59.7833,71.28,85,22,3.29,GY,1640475641
kananga,-5.8958,22.4178,69.24,97,100,3.04,CD,1640475642
pingliang,35.5392,106.6861,13.87,63,13,5.66,CN,1640475643
nuuk,64.1835,-51.7216,19.76,76,98,7.92,GL,1640475644
xichang,27.8964,102.2634,41.74,96,97,2.55,CN,1640475645
palimbang,6.2106,124.1894,81.45,77,100,0.56,PH,1640475645
raton,36.9034,-104.4391,52.14,22,1,10.36,US,1640475646
aykhal,66.0,111.5,-31.59,100,44,1.45,RU,1640475647
tukrah,32.5341,20.5791,55.36,76,5,8.63,LY,1640475648
alanya,36.5438,31.9998,51.93,66,96,4.36,TR,1640475648
iwanai,42.9744,140.5089,23.02,84,100,13.35,JP,1640475649
luau,-10.7073,22.2247,62.76,97,98,1.01,AO,1640475650
tomatlan,19.9333,-105.25,77.74,53,5,5.28,MX,1640475651
port moresby,-9.4431,147.1797,83.62,79,40,11.5,PG,1640475712
high level,58.5169,-117.136,-14.69,70,40,5.75,CA,1640475712
pafos,34.7667,32.4167,53.51,71,75,4.61,CY,1640475713
lusambo,-4.9667,23.45,69.31,99,100,1.9,CD,1640475714
uniontown,39.9001,-79.7164,57.65,58,100,8.25,US,1640475550
kajaani,64.2273,27.7285,-2.15,78,75,1.14,FI,1640475716
minab,27.1467,57.0801,69.82,79,81,5.08,IR,1640475716
kimparana,12.8347,-4.9244,75.18,15,100,7.74,ML,1640475717
cururupu,-1.8283,-44.8683,77.27,88,100,3.0,BR,1640475718
bulgan,48.8125,103.5347,-1.07,74,10,4.5,MN,1640475719
burnie,-41.0667,145.9167,62.17,42,5,10.8,AU,1640475720
moroni,-11.7022,43.2551,79.48,66,4,5.08,KM,1640475720
inverell,-29.7833,151.1167,78.12,61,27,3.0,AU,1640475721
valdosta,30.8327,-83.2785,66.15,77,1,3.44,US,1640475109
umm kaddadah,13.6017,26.6876,61.21,26,0,13.15,SD,1640475723
nam som,17.7704,102.1895,68.27,93,1,1.5,TH,1640475723
trairi,-3.2778,-39.2689,79.92,78,83,6.24,BR,1640475443
karpathos,35.507,27.2132,58.96,67,21,8.05,GR,1640475725
irece,-11.3042,-41.8558,66.43,98,100,7.76,BR,1640475725
zhanakorgan,43.9098,67.2495,32.65,98,100,10.25,KZ,1640475726
oranjestad,12.524,-70.027,80.55,83,40,14.97,AW,1640475728
valparaiso,-33.0393,-71.6273,67.48,77,75,6.91,CL,1640475728
spearfish,44.4908,-103.8594,31.12,63,1,1.99,US,1640475729
tasgaon,17.0333,74.6,67.28,53,0,4.88,IN,1640475730
itaituba,-4.2761,-55.9836,74.59,98,96,1.61,BR,1640475731
pathalgaon,22.5667,83.4667,55.08,60,1,4.36,IN,1640475732
la rioja,42.25,-2.5,43.05,88,100,4.81,ES,1640475733
bluefields,12.0137,-83.7635,80.67,78,40,4.61,NI,1640475700
vredendal,-31.6683,18.5012,64.63,83,35,7.29,ZA,1640475734
turukhansk,65.8167,87.9833,-8.43,98,100,8.48,RU,1640475735
mayna,54.1135,47.6231,10.53,92,55,8.21,RU,1640475735
saint-leu,-21.15,55.2833,77.86,82,85,1.79,RE,1640475736
yarada,17.65,83.2667,72.16,79,2,2.98,IN,1640475737
tete,-16.1564,33.5867,82.49,74,40,5.75,MZ,1640475738
jimeta,9.2833,12.4667,74.98,24,13,0.0,NG,1640475738
sambalpur,21.45,83.9667,59.38,72,0,3.04,IN,1640475739
launceston,-41.45,147.1667,67.15,43,40,4.0,AU,1640475740
linxia,35.6003,103.2064,12.76,85,100,2.46,CN,1640475741
mayumba,-3.432,10.6554,76.51,93,77,3.4,GA,1640475742
tura,25.5198,90.2201,54.18,67,2,3.6,IN,1640475743
mzimba,-11.9,33.6,64.85,71,90,4.05,MW,1640475744
uhlove,44.8215,33.6045,49.57,87,100,22.57,UA,1640475745
belluno,46.145,12.2214,41.32,89,100,4.25,IT,1640475746
alikalia,9.1667,-11.4,70.11,37,58,0.94,SL,1640475747
kachiry,53.0675,76.1036,11.95,95,100,9.82,KZ,1640475748
panama city,8.9936,-79.5197,84.15,72,20,8.05,PA,1640475644
srikakulam,18.3,83.9,68.72,89,16,3.67,IN,1640475749
ginir,7.1333,40.7,59.7,55,58,2.8,ET,1640475750
izhma,65.0083,53.9113,6.04,92,97,10.49,RU,1640475751
dunedin,-45.8742,170.5036,70.81,48,3,5.01,NZ,1640475789
emerald,-23.5333,148.1667,78.94,83,75,4.61,AU,1640475813
segezha,63.7415,34.3222,9.09,95,100,5.75,RU,1640475814
alihe,50.5667,123.7167,-16.42,94,17,3.31,CN,1640475816
maldonado,-34.6667,-54.9167,69.19,93,10,5.37,UY,1640475719
usevya,-7.1,31.2333,65.89,94,98,1.9,TZ,1640475818
pingxiang,27.6167,113.85,35.01,97,100,3.67,CN,1640475742
mitu,1.1983,-70.1733,74.01,96,91,1.19,CO,1640475602
san carlos de bariloche,-41.1456,-71.3082,74.95,23,0,11.5,AR,1640475626
beloha,-25.1667,45.05,69.1,81,85,9.06,MG,1640475822
pasewalk,53.5063,13.99,12.47,86,8,5.59,DE,1640475822
ukiah,39.1502,-123.2078,50.63,80,75,3.44,US,1640475823
berlevag,70.8578,29.0864,27.9,73,100,27.09,NO,1640475824
stephenville,32.2207,-98.2023,76.15,45,1,0.0,US,1640475810
dekar,-21.5333,21.9333,74.71,57,83,10.04,BW,1640475825
jardim,-21.4803,-56.1381,77.59,66,38,4.41,BR,1640475826
carballo,43.213,-8.691,55.87,91,100,6.15,ES,1640475826
panjab,34.388,67.0233,15.26,92,93,1.54,AF,1640475827
novyy urengoy,66.0833,76.6333,-13.47,97,83,10.42,RU,1640475828
kelvington,52.1667,-103.5343,-15.14,99,94,4.16,CA,1640475829
gebre guracha,9.8,38.4,56.8,47,75,3.38,ET,1640475830
murmino,54.6036,40.0544,7.77,94,51,9.37,RU,1640475831
olinda,-8.0089,-34.8553,82.13,78,75,5.75,BR,1640475832
bara,10.3744,10.7288,68.95,28,62,8.21,NG,1640475833
